City_ID,City,Country,Lat,Lng,Max Temp,Humidity,Cloudiness,Wind Speed,Current Description,Date
0,Lake Jackson,US,29.0339,-95.4344,91.62,81,1,0.0,clear sky,2021-08-03 23:03:58
1,Gonnoi,GR,39.8667,22.4667,76.39,22,7,2.77,clear sky,2021-08-03 23:03:58
2,Nuuk,GL,64.1835,-51.7216,50.61,87,75,18.41,broken clouds,2021-08-03 23:03:58
3,Nakamura,JP,32.9833,132.9333,80.8,83,42,5.08,scattered clouds,2021-08-03 23:03:59
4,Hilo,US,19.7297,-155.09,80.26,76,49,3.0,scattered clouds,2021-08-03 23:00:08
5,Vaini,TO,-21.2,-175.2,75.36,73,20,12.66,few clouds,2021-08-03 23:03:59
6,Zwedru,LR,6.0667,-8.1281,71.71,88,92,3.65,overcast clouds,2021-08-03 23:03:59
7,Mataura,NZ,-46.1927,168.8643,39.47,77,85,3.53,overcast clouds,2021-08-03 22:59:35
8,Chuy,UY,-33.6971,-53.4616,49.46,92,4,4.88,clear sky,2021-08-03 23:04:00
9,Ponta Do Sol,PT,32.6667,-17.1,72.23,77,4,7.47,clear sky,2021-08-03 23:04:00
10,Qaanaaq,GL,77.484,-69.3632,41.68,98,100,5.7,overcast clouds,2021-08-03 23:04:00
11,Lavrentiya,RU,65.5833,-171.0,48.56,95,85,6.76,overcast clouds,2021-08-03 23:04:01
12,Ust-Tsilma,RU,65.441,52.1498,62.29,93,100,5.12,overcast clouds,2021-08-03 23:04:01
13,New Norfolk,AU,-42.7826,147.0587,49.91,86,56,1.99,broken clouds,2021-08-03 23:04:01
14,Port Elizabeth,ZA,-33.918,25.5701,60.87,69,0,13.0,clear sky,2021-08-03 23:04:02
15,Ushuaia,AR,-54.8,-68.3,33.58,92,83,5.59,broken clouds,2021-08-03 23:01:13
16,Punta Arenas,CL,-53.15,-70.9167,44.11,70,100,13.06,overcast clouds,2021-08-03 23:04:02
17,Makakilo City,US,21.3469,-158.0858,88.12,47,20,12.66,few clouds,2021-08-03 23:04:02
18,Moose Factory,CA,51.2585,-80.6094,56.53,60,97,6.2,overcast clouds,2021-08-03 23:04:03
19,Muzhi,RU,65.3667,64.6667,62.58,71,76,2.17,broken clouds,2021-08-03 23:04:03
20,Butaritari,KI,3.0707,172.7902,83.34,71,92,15.12,light rain,2021-08-03 23:04:03
21,Mar Del Plata,AR,-38.0023,-57.5575,55.42,41,0,1.01,clear sky,2021-08-03 22:59:43
22,Busselton,AU,-33.65,115.3333,43.09,78,75,2.98,broken clouds,2021-08-03 23:04:04
23,Saint-Pierre,RE,-21.3393,55.4781,67.68,83,90,9.22,overcast clouds,2021-08-03 23:04:04
24,Senges,BR,-24.1128,-49.4636,53.85,80,20,7.96,few clouds,2021-08-03 23:04:04
25,Avarua,CK,-21.2078,-159.775,73.45,83,75,11.5,light rain,2021-08-03 23:04:04
26,Severo-Kurilsk,RU,50.6789,156.125,53.29,72,93,16.82,overcast clouds,2021-08-03 23:04:05
27,Kapaa,US,22.0752,-159.319,86.32,74,20,5.01,few clouds,2021-08-03 23:04:05
28,Brazzaville,CG,-4.2658,15.2832,79.23,43,14,1.92,few clouds,2021-08-03 23:04:05
29,Carnarvon,AU,-24.8667,113.6333,56.95,47,0,18.86,clear sky,2021-08-03 23:04:05
30,Rikitea,PF,-23.1203,-134.9692,70.02,59,83,14.14,broken clouds,2021-08-03 23:04:06
31,Rosarito,MX,32.3333,-117.0333,101.41,51,1,13.38,clear sky,2021-08-03 23:04:06
32,Hualmay,PE,-11.0964,-77.6139,65.44,80,10,9.95,clear sky,2021-08-03 23:04:06
33,Guerrero Negro,MX,27.9769,-114.0611,84.76,49,72,11.27,broken clouds,2021-08-03 23:04:07
34,Hobart,AU,-42.8794,147.3294,50.25,83,40,1.01,scattered clouds,2021-08-03 23:01:13
35,Bluff,NZ,-46.6,168.3333,39.79,77,84,7.18,broken clouds,2021-08-03 23:04:07
36,Chillicothe,US,39.3331,-82.9824,81.09,40,1,8.01,clear sky,2021-08-03 23:04:07
37,Kodiak,US,57.79,-152.4072,57.49,80,52,7.52,broken clouds,2021-08-03 23:01:44
38,Nova Odesa,UA,47.3078,31.7851,68.9,58,72,6.58,broken clouds,2021-08-03 23:04:08
39,Dunedin,NZ,-45.8742,170.5036,50.81,60,36,4.0,scattered clouds,2021-08-03 22:59:34
40,Saldanha,ZA,-33.0117,17.9442,56.05,94,7,7.34,clear sky,2021-08-03 23:04:08
41,Guilin,CN,25.2819,110.2864,78.21,83,82,3.02,broken clouds,2021-08-03 23:04:08
42,Te Anau,NZ,-45.4167,167.7167,38.89,83,100,0.25,overcast clouds,2021-08-03 23:04:09
43,Albany,US,42.6001,-73.9662,74.16,67,100,2.53,overcast clouds,2021-08-03 23:03:48
44,Siavonga,ZM,-16.5382,28.7088,63.0,43,1,5.7,clear sky,2021-08-03 23:04:09
45,Jamestown,US,42.097,-79.2353,76.32,51,1,4.0,clear sky,2021-08-03 23:02:13
46,Touros,BR,-5.1989,-35.4608,77.13,78,86,18.97,overcast clouds,2021-08-03 23:04:09
47,Portland,US,45.5234,-122.6762,97.45,39,0,1.01,clear sky,2021-08-03 22:59:48
48,Jurm,AF,36.8648,70.8342,64.74,46,3,0.83,clear sky,2021-08-03 23:04:10
49,Rio Gallegos,AR,-51.6226,-69.2181,42.04,60,100,7.78,overcast clouds,2021-08-03 23:01:46
50,Abu Zabad,SD,12.35,29.25,75.61,78,100,11.01,light rain,2021-08-03 23:04:10
51,Camocim,BR,-2.9022,-40.8411,77.59,79,24,7.09,few clouds,2021-08-03 23:04:10
52,Yicheng,CN,31.3705,119.8703,81.46,89,77,13.98,broken clouds,2021-08-03 23:04:11
53,Sorong,ID,-0.8833,131.25,80.78,80,74,3.36,broken clouds,2021-08-03 23:04:11
54,Djibo,BF,14.1022,-1.6306,84.07,57,44,12.8,scattered clouds,2021-08-03 23:04:11
55,Tommot,RU,58.9564,126.2925,62.65,91,100,2.35,overcast clouds,2021-08-03 23:04:12
56,Plaridel,PH,14.8872,120.8572,83.1,86,99,12.53,moderate rain,2021-08-03 23:04:12
57,Rawson,AR,-43.3002,-65.1023,51.15,45,66,13.8,broken clouds,2021-08-03 23:03:37
58,Atuona,PF,-9.8,-139.0333,77.43,69,17,16.42,few clouds,2021-08-03 23:02:01
59,Baykit,RU,61.67,96.37,64.04,83,86,2.93,overcast clouds,2021-08-03 23:04:12
60,Hermanus,ZA,-34.4187,19.2345,52.9,91,59,3.56,broken clouds,2021-08-03 23:04:13
61,Cape Town,ZA,-33.9258,18.4232,57.88,82,20,3.0,few clouds,2021-08-03 23:04:13
62,Cidreira,BR,-30.1811,-50.2056,55.4,93,12,6.58,few clouds,2021-08-03 23:04:13
63,Iskateley,RU,67.6803,53.1512,63.64,74,99,14.97,overcast clouds,2021-08-03 23:04:14
64,Hithadhoo,MV,-0.6,73.0833,81.57,75,100,10.58,overcast clouds,2021-08-03 22:59:33
65,Fortaleza,BR,-3.7227,-38.5247,83.25,83,20,11.5,few clouds,2021-08-03 23:02:42
66,Saskylakh,RU,71.9167,114.0833,58.37,45,43,8.14,scattered clouds,2021-08-03 23:04:14
67,Geraldton,AU,-28.7667,114.6,41.41,87,0,2.3,clear sky,2021-08-03 23:04:14
68,Murom,RU,55.5656,42.0417,60.64,78,77,6.38,broken clouds,2021-08-03 23:04:15
69,Yamada,JP,39.4667,141.95,83.77,74,99,1.3,overcast clouds,2021-08-03 23:04:15
70,Todos Santos,MX,23.45,-110.2167,93.0,83,97,9.15,overcast clouds,2021-08-03 23:04:15
71,Kaitangata,NZ,-46.2817,169.8464,48.92,69,52,3.53,broken clouds,2021-08-03 23:00:09
72,Baghmara,IN,23.795,86.2085,79.57,85,100,6.38,overcast clouds,2021-08-03 23:04:16
73,Airai,TL,-8.9266,125.4092,61.43,60,84,2.98,broken clouds,2021-08-03 23:04:16
74,Talnakh,RU,69.4865,88.3972,68.18,57,29,4.92,scattered clouds,2021-08-03 23:04:16
75,Hofn,IS,64.2539,-15.2082,53.67,91,93,3.0,overcast clouds,2021-08-03 23:04:16
76,San Patricio,US,28.017,-97.5169,92.12,49,100,4.05,overcast clouds,2021-08-03 23:04:17
77,Hami,CN,42.8,93.45,79.3,18,51,5.17,broken clouds,2021-08-03 23:04:17
78,Anamur,TR,36.0751,32.8369,80.62,35,0,7.58,clear sky,2021-08-03 23:04:17
79,Puerto Ayora,EC,-0.7393,-90.3518,71.08,79,81,8.37,broken clouds,2021-08-03 23:04:18
80,Fortuna,US,40.5982,-124.1573,69.85,78,20,17.27,few clouds,2021-08-03 23:04:18
81,Dikson,RU,73.5069,80.5464,47.52,84,99,7.25,overcast clouds,2021-08-03 23:04:18
82,Port Alfred,ZA,-33.5906,26.891,67.24,32,0,7.2,clear sky,2021-08-03 23:04:18
83,Hasaki,JP,35.7333,140.8333,82.8,80,3,8.46,clear sky,2021-08-03 23:02:13
84,Tuy Hoa,VN,13.0833,109.3,83.64,67,100,13.4,overcast clouds,2021-08-03 23:00:55
85,Muskegon,US,43.3,-86.1334,78.78,51,75,6.91,broken clouds,2021-08-03 23:04:19
86,Ketchikan,US,55.3422,-131.6461,61.27,94,90,9.22,moderate rain,2021-08-03 23:04:19
87,Torbay,CA,47.6666,-52.7314,66.67,73,0,5.99,clear sky,2021-08-03 23:04:19
88,Tuktoyaktuk,CA,69.4541,-133.0374,43.81,76,28,10.71,scattered clouds,2021-08-03 23:03:16
89,Zhucheng,CN,35.9947,119.3975,76.17,85,85,1.9,overcast clouds,2021-08-03 23:04:20
90,Castro,BR,-24.7911,-50.0119,47.88,77,31,5.44,scattered clouds,2021-08-03 23:01:24
91,Ginda,IN,30.6945,78.4932,67.68,90,94,2.04,overcast clouds,2021-08-03 23:04:20
92,Noumea,NC,-22.2763,166.4572,73.0,99,0,1.48,clear sky,2021-08-03 22:59:59
93,Esperance,AU,-33.8667,121.9,54.27,75,77,5.37,broken clouds,2021-08-03 23:04:20
94,Barrow,US,71.2906,-156.7887,48.22,68,90,14.97,overcast clouds,2021-08-03 23:04:14
95,Iqaluit,CA,63.7506,-68.5145,43.7,87,94,17.0,overcast clouds,2021-08-03 23:01:16
96,Saint George,US,37.1041,-113.5841,106.27,13,1,1.01,clear sky,2021-08-03 23:02:15
97,Banda Aceh,ID,5.5577,95.3222,79.5,80,99,14.74,overcast clouds,2021-08-03 23:04:21
98,Longyearbyen,SJ,78.2186,15.6401,46.24,66,90,13.8,overcast clouds,2021-08-03 23:04:21
99,Bertoua,CM,4.5833,13.6833,67.24,98,100,1.39,moderate rain,2021-08-03 23:04:22
100,Bereda,ES,43.2686,-7.5406,65.41,100,100,4.32,overcast clouds,2021-08-03 23:04:22
101,Bambous Virieux,MU,-20.3428,57.7575,68.23,70,0,10.63,clear sky,2021-08-03 23:04:22
102,Thompson,CA,55.7435,-97.8558,92.25,19,23,11.92,few clouds,2021-08-03 23:04:22
103,Hervey Bay,AU,-25.2986,152.8535,65.01,54,81,3.0,broken clouds,2021-08-03 23:04:23
104,Mayumba,GA,-3.432,10.6554,73.11,92,71,6.73,broken clouds,2021-08-03 23:04:23
105,Seddon,AU,-37.8068,144.8916,51.08,84,75,3.0,broken clouds,2021-08-03 23:04:23
106,Ilulissat,GL,69.2167,-51.1,46.42,87,36,4.61,scattered clouds,2021-08-03 23:02:04
107,Tyrma,RU,50.0833,132.1667,69.62,97,100,3.29,overcast clouds,2021-08-03 23:04:24
108,Provideniya,RU,64.3833,-173.3,53.71,87,90,13.42,mist,2021-08-03 23:04:24
109,Yellowknife,CA,62.456,-114.3525,65.32,45,100,8.01,overcast clouds,2021-08-03 23:00:19
110,Faanui,PF,-16.4833,-151.75,79.09,75,29,9.66,scattered clouds,2021-08-03 23:04:24
111,Barranca,PE,-10.75,-77.7667,64.74,80,12,9.1,few clouds,2021-08-03 23:04:25
112,Narsaq,GL,60.9167,-46.05,46.11,94,100,1.7,light rain,2021-08-03 22:59:48
113,Bengkulu,ID,-3.8004,102.2655,75.15,91,64,4.29,broken clouds,2021-08-03 23:04:25
114,Togur,RU,58.3631,82.8265,54.34,95,84,1.83,broken clouds,2021-08-03 23:04:25
115,Port Blair,IN,11.6667,92.75,81.93,82,98,18.57,overcast clouds,2021-08-03 23:04:25
116,Ribeira Grande,PT,38.5167,-28.7,72.75,86,1,5.5,clear sky,2021-08-03 22:59:32
117,Khatanga,RU,71.9667,102.5,69.26,58,98,8.97,overcast clouds,2021-08-03 23:04:26
118,Bairiki,KI,1.3292,172.9752,86.0,66,75,8.05,broken clouds,2021-08-03 23:04:26
119,Boa Vista,BR,2.8197,-60.6733,80.58,69,75,5.75,broken clouds,2021-08-03 23:04:26
120,Walvis Bay,NA,-22.9575,14.5053,59.09,86,23,5.82,few clouds,2021-08-03 23:04:27
121,Bilibino,RU,68.0546,166.4372,35.49,96,100,6.96,light rain,2021-08-03 23:04:27
122,Biak,ID,-0.9131,122.8766,75.25,89,100,10.02,overcast clouds,2021-08-03 23:04:27
123,Flinders,AU,-34.5833,150.8552,54.21,58,3,17.0,clear sky,2021-08-03 23:04:28
124,Breves,BR,-1.6822,-50.4803,79.9,63,98,2.51,overcast clouds,2021-08-03 23:04:28
125,Reconquista,AR,-29.15,-59.65,54.34,58,89,8.08,overcast clouds,2021-08-03 23:04:28
126,Taoudenni,ML,22.6783,-3.9836,103.17,18,39,9.15,scattered clouds,2021-08-03 23:04:28
127,Orumiyeh,IR,37.5527,45.0761,70.83,44,62,3.74,broken clouds,2021-08-03 23:04:29
128,Mahebourg,MU,-20.4081,57.7,68.5,70,1,10.4,clear sky,2021-08-03 23:01:06
129,Bollnas,SE,61.3482,16.3946,43.39,65,26,2.59,scattered clouds,2021-08-03 23:04:29
130,Lorengau,PG,-2.0226,147.2712,83.48,76,28,5.88,scattered clouds,2021-08-03 23:04:29
131,Ekibastuz,KZ,51.6667,75.3667,67.73,51,90,9.4,overcast clouds,2021-08-03 23:04:30
132,Mount Gambier,AU,-37.8333,140.7667,51.03,93,59,10.38,broken clouds,2021-08-03 23:04:30
133,Husavik,IS,66.0449,-17.3389,51.51,85,88,3.22,overcast clouds,2021-08-03 23:04:30
134,Novaya Igirma,RU,57.1334,103.9112,62.33,71,98,1.32,overcast clouds,2021-08-03 23:04:30
135,Constitucion,CL,-35.3333,-72.4167,51.98,80,5,1.83,clear sky,2021-08-03 23:04:31
136,Porto Nacional,BR,-10.7081,-48.4172,78.8,30,0,3.33,clear sky,2021-08-03 23:04:31
137,Kikwit,CD,-5.041,18.8162,75.72,25,32,0.89,scattered clouds,2021-08-03 23:04:31
138,Manokwari,ID,-0.8667,134.0833,79.03,79,98,2.64,light rain,2021-08-03 23:04:32
139,Arraial Do Cabo,BR,-22.9661,-42.0278,68.29,75,64,14.63,broken clouds,2021-08-03 23:01:53
140,Alofi,NU,-19.0595,-169.9187,78.69,57,40,9.22,scattered clouds,2021-08-03 23:04:32
141,Miri,MY,4.4148,114.0089,77.04,78,100,3.69,overcast clouds,2021-08-03 23:02:43
142,Tiksi,RU,71.6872,128.8694,44.29,76,93,9.31,overcast clouds,2021-08-03 23:04:32
143,Cabatuan,PH,10.8794,122.486,80.74,82,100,7.85,overcast clouds,2021-08-03 23:04:32
144,Vila Franca Do Campo,PT,37.7167,-25.4333,72.01,90,58,4.43,broken clouds,2021-08-03 23:04:33
145,East London,ZA,-33.0153,27.9116,67.05,25,0,7.07,clear sky,2021-08-03 23:04:33
146,Pionerskiy,RU,54.9508,20.2275,57.04,64,77,0.16,broken clouds,2021-08-03 23:04:33
147,Richards Bay,ZA,-28.783,32.0377,64.4,75,0,17.05,clear sky,2021-08-03 23:04:34
148,Port Macquarie,AU,-31.4333,152.9167,60.89,48,0,11.77,clear sky,2021-08-03 23:04:34
149,San Pedro,PH,14.35,121.0167,82.35,80,100,11.74,overcast clouds,2021-08-03 23:04:34
150,Centralia,US,46.7162,-122.9543,89.44,49,1,9.22,clear sky,2021-08-03 23:03:19
151,Visnes,NO,59.3556,5.2242,55.81,82,61,4.61,broken clouds,2021-08-03 23:04:34
152,Chifeng,CN,42.2683,118.9636,68.92,88,100,5.03,light rain,2021-08-03 23:04:35
153,Mao,ES,39.8885,4.2658,72.16,78,0,3.44,clear sky,2021-08-03 23:04:35
154,Lompoc,US,34.6391,-120.4579,89.02,71,1,8.01,clear sky,2021-08-03 23:00:46
155,Teluk Intan,MY,4.0259,101.0213,73.38,96,56,1.97,broken clouds,2021-08-03 23:04:35
156,Mount Isa,AU,-20.7333,139.5,55.17,38,20,12.66,few clouds,2021-08-03 23:04:36
157,Santa Maria,BR,-29.6842,-53.8069,50.27,82,7,3.89,clear sky,2021-08-03 23:04:14
158,Kiunga,PG,-6.1219,141.2906,76.26,90,94,2.8,overcast clouds,2021-08-03 23:04:36
159,Paoua,CF,7.2427,16.4406,67.68,96,98,4.38,overcast clouds,2021-08-03 23:04:36
160,Zyryanka,RU,65.75,150.85,48.92,44,96,22.08,overcast clouds,2021-08-03 23:04:37
161,Aklavik,CA,68.2191,-135.0107,60.17,40,9,5.3,clear sky,2021-08-03 23:04:37
162,Kodinar,IN,20.7903,70.7031,80.89,85,100,18.41,overcast clouds,2021-08-03 23:04:37
163,Petatlan,MX,17.5167,-101.2667,91.2,67,57,6.24,broken clouds,2021-08-03 23:04:37
164,Pahrump,US,36.2083,-115.9839,107.83,11,5,5.99,clear sky,2021-08-03 23:04:38
165,Pangnirtung,CA,66.1451,-65.7125,50.58,76,99,3.47,overcast clouds,2021-08-03 23:04:38
166,Lebu,CL,-37.6167,-73.65,50.65,91,19,10.27,few clouds,2021-08-03 23:00:08
167,Krasyliv,UA,49.6519,26.9725,58.06,69,10,2.8,clear sky,2021-08-03 23:04:38
168,Sao Jose Da Coroa Grande,BR,-8.8978,-35.1478,72.63,89,45,9.51,scattered clouds,2021-08-03 23:04:39
169,Mogadishu,SO,2.0371,45.3438,76.23,86,100,16.04,overcast clouds,2021-08-03 23:04:39
170,Terrace,CA,54.5163,-128.6035,61.43,97,100,0.74,light rain,2021-08-03 23:04:39
171,Warin Chamrap,TH,15.1932,104.8628,76.46,92,100,9.98,moderate rain,2021-08-03 23:04:39
172,Kajaani,FI,64.2273,27.7285,51.85,76,90,16.11,overcast clouds,2021-08-03 23:04:40
173,Mwene-Ditu,CD,-7.0,23.45,70.7,33,0,4.63,clear sky,2021-08-03 23:04:40
174,Kathmandu,NP,27.7167,85.3167,70.02,100,75,3.44,light rain,2021-08-03 23:03:12
175,Ugoofaaru,MV,5.6667,73.0,82.04,76,96,7.83,overcast clouds,2021-08-03 23:04:40
176,Finschhafen,PG,-6.6024,147.8681,81.86,75,30,7.54,scattered clouds,2021-08-03 23:04:41
177,Cherskiy,RU,68.75,161.3,44.78,75,74,12.86,broken clouds,2021-08-03 23:04:41
178,Ayan,RU,56.45,138.1667,53.71,78,99,2.46,overcast clouds,2021-08-03 23:04:41
179,Egvekinot,RU,66.3167,-179.1667,44.76,99,100,5.1,light rain,2021-08-03 23:04:42
180,Bulgan,MN,48.8125,103.5347,53.15,87,100,4.23,overcast clouds,2021-08-03 23:04:42
181,Sawakin,SD,19.1059,37.3321,92.91,51,63,11.68,broken clouds,2021-08-03 23:04:42
182,Waipawa,NZ,-41.4122,175.5153,47.44,62,61,13.67,broken clouds,2021-08-03 23:04:43
183,Fengcheng,CN,40.4536,124.0717,72.9,95,97,3.62,overcast clouds,2021-08-03 23:04:43
184,Nidamangalam,IN,10.7717,79.4145,81.32,61,81,10.63,broken clouds,2021-08-03 23:04:43
185,Nelson Bay,AU,-32.7167,152.15,56.75,58,0,5.01,clear sky,2021-08-03 23:04:43
186,Agirish,RU,61.9247,63.0231,62.76,71,99,3.78,overcast clouds,2021-08-03 23:04:44
187,Las Cruces,US,32.3123,-106.7783,93.31,34,75,1.99,broken clouds,2021-08-03 23:01:38
188,Russell,US,32.3502,-85.1999,87.51,69,20,4.61,few clouds,2021-08-03 23:04:44
189,Cabo San Lucas,MX,22.8909,-109.9124,93.51,75,100,7.0,overcast clouds,2021-08-03 23:03:02
190,Pevek,RU,69.7008,170.3133,37.69,88,82,3.51,broken clouds,2021-08-03 23:04:44
191,Olden,NO,61.8364,6.8064,51.17,90,52,1.28,broken clouds,2021-08-03 23:04:45
192,Isangel,VU,-19.55,169.2667,74.57,58,36,8.95,scattered clouds,2021-08-03 23:04:45
193,Kholtoson,RU,50.2981,103.3097,51.1,89,100,2.62,overcast clouds,2021-08-03 23:04:45
194,Padang,ID,-0.9492,100.3543,76.33,88,80,2.91,moderate rain,2021-08-03 23:04:45
195,Maumere,ID,-8.6199,122.2111,77.58,81,46,3.58,scattered clouds,2021-08-03 23:04:46
196,Kununurra,AU,-15.7667,128.7333,75.18,27,20,9.22,few clouds,2021-08-03 23:04:46
197,Piacabucu,BR,-10.4056,-36.4344,71.67,86,72,9.37,broken clouds,2021-08-03 23:02:11
198,Bourges,FR,47.25,2.4167,58.59,96,94,3.13,overcast clouds,2021-08-03 23:04:46
199,Saint-Philippe,RE,-21.3585,55.7679,67.59,76,1,7.58,light rain,2021-08-03 23:04:47
200,Chokurdakh,RU,70.6333,147.9167,50.31,42,25,9.51,scattered clouds,2021-08-03 23:04:47
201,Tezu,IN,27.9167,96.1667,75.74,89,23,3.87,few clouds,2021-08-03 23:04:47
202,Redlands,US,34.0556,-117.1825,113.27,15,1,5.99,clear sky,2021-08-03 23:04:48
203,Bethel,US,41.3712,-73.414,74.55,70,100,1.79,overcast clouds,2021-08-03 22:59:55
204,Puerto Penasco,MX,31.3167,-113.5333,91.9,73,12,8.99,few clouds,2021-08-03 23:01:46
205,Vila Velha,BR,-20.3297,-40.2925,74.97,72,84,3.53,light rain,2021-08-03 23:00:28
206,Kawalu,ID,-7.3817,108.2082,71.62,98,93,0.78,overcast clouds,2021-08-03 23:04:48
207,Port Lincoln,AU,-34.7333,135.8667,54.5,77,28,13.24,scattered clouds,2021-08-03 23:03:02
208,Goderich,CA,43.7501,-81.7165,75.2,67,0,7.07,clear sky,2021-08-03 23:01:34
209,Victoria,HK,22.2855,114.1577,83.32,84,65,1.99,broken clouds,2021-08-03 23:00:04
210,Kotido,UG,2.9806,34.1331,70.14,65,95,1.77,light rain,2021-08-03 23:04:49
211,Raudeberg,NO,61.9875,5.1352,51.87,66,61,1.21,broken clouds,2021-08-03 23:04:49
212,San Quintin,MX,30.4833,-115.95,78.03,56,0,15.12,clear sky,2021-08-03 23:04:49
213,Bandarbeyla,SO,9.4942,50.8122,78.08,76,10,27.36,clear sky,2021-08-03 23:04:49
214,Marzuq,YE,14.4,46.4667,83.26,52,85,6.08,overcast clouds,2021-08-03 23:04:50
215,Grand-Lahou,CI,5.1367,-5.0242,75.47,91,99,7.7,overcast clouds,2021-08-03 23:04:50
216,Hobyo,SO,5.3505,48.5268,77.16,80,27,20.54,scattered clouds,2021-08-03 23:04:50
217,Daru,PG,-9.0763,143.2092,79.29,78,58,9.6,broken clouds,2021-08-03 23:04:50
218,Changping,CN,40.2186,116.2197,76.64,92,85,4.0,overcast clouds,2021-08-03 23:04:51
219,Gizo,SB,-8.103,156.8419,81.3,79,63,11.48,moderate rain,2021-08-03 23:04:51
220,Alto Araguaia,BR,-17.3147,-53.2153,69.48,36,86,6.11,overcast clouds,2021-08-03 23:04:51
221,Vestmannaeyjar,IS,63.4427,-20.2734,53.65,90,99,6.93,overcast clouds,2021-08-03 23:03:11
222,Tasiilaq,GL,65.6145,-37.6368,46.56,78,100,3.29,overcast clouds,2021-08-03 23:03:11
223,Santiago,CL,-33.4569,-70.6483,66.85,39,0,6.91,clear sky,2021-08-03 23:00:42
224,Sao Filipe,CV,14.8961,-24.4956,75.36,96,100,11.14,overcast clouds,2021-08-03 23:04:52
225,Gat,IL,31.61,34.7642,87.4,40,0,4.45,clear sky,2021-08-03 23:03:05
226,Izhma,RU,65.0083,53.9113,64.09,77,92,6.06,overcast clouds,2021-08-03 23:04:52
227,Grindavik,IS,63.8424,-22.4338,53.56,93,75,9.22,broken clouds,2021-08-03 23:04:53
228,Bantry,IE,51.6833,-9.45,58.48,92,99,2.06,overcast clouds,2021-08-03 23:04:43
229,Norman Wells,CA,65.282,-126.8329,51.84,93,90,3.44,light rain,2021-08-03 23:04:53
230,Mumford,GH,5.2618,-0.759,75.99,92,66,12.06,light rain,2021-08-03 23:04:53
231,Tura,IN,25.5198,90.2201,75.15,95,100,5.28,overcast clouds,2021-08-03 23:04:53
232,Codrington,AU,-38.2667,141.9667,51.69,89,77,12.57,broken clouds,2021-08-03 23:04:54
233,Faya,SA,18.3851,42.4509,64.92,72,50,6.22,scattered clouds,2021-08-03 23:04:54
234,Eureka,US,40.8021,-124.1637,70.12,71,55,5.01,broken clouds,2021-08-03 23:00:47
235,Toora-Khem,RU,52.4675,96.11,52.84,87,25,1.59,scattered clouds,2021-08-03 23:04:54
236,Nemuro,JP,43.3236,145.575,65.57,97,99,9.17,overcast clouds,2021-08-03 23:04:55
237,Jinchang,CN,38.4953,102.1739,72.91,24,94,6.98,overcast clouds,2021-08-03 23:04:55
238,Jerantut,MY,3.936,102.3626,73.49,98,98,0.87,moderate rain,2021-08-03 23:04:55
239,Okhotsk,RU,59.3833,143.3,58.84,60,1,4.81,clear sky,2021-08-03 23:04:55
240,Rundu,NA,-17.9333,19.7667,56.84,39,0,4.59,clear sky,2021-08-03 23:04:56
241,Xinzhou,CN,38.4092,112.7333,69.22,87,100,1.41,overcast clouds,2021-08-03 23:04:56
242,Bredasdorp,ZA,-34.5322,20.0403,51.28,95,42,2.84,scattered clouds,2021-08-03 23:04:56
243,Dingle,PH,10.9995,122.6711,81.18,81,100,8.75,overcast clouds,2021-08-03 23:04:57
244,Kytmanovo,RU,53.4593,85.4479,59.49,89,76,1.5,light rain,2021-08-03 23:04:57
245,Alford,GB,57.2326,-2.703,56.16,92,98,4.09,overcast clouds,2021-08-03 23:04:57
246,Svetlyy,RU,54.675,20.1347,57.25,81,72,2.37,broken clouds,2021-08-03 23:04:58
247,Souillac,MU,-20.5167,57.5167,68.13,73,4,8.68,clear sky,2021-08-03 23:04:58
248,Okato,NZ,-39.2,173.8833,51.42,64,20,1.81,few clouds,2021-08-03 23:04:58
249,Soe,ID,-9.8607,124.284,66.6,79,59,3.65,broken clouds,2021-08-03 23:04:58
250,Pando,UY,-34.7167,-55.95,50.09,87,14,0.0,few clouds,2021-08-03 23:04:59
251,Mbanza-Ngungu,CD,-5.25,14.8667,72.5,58,4,8.59,clear sky,2021-08-03 23:04:59
252,Rincon,US,32.296,-81.2354,81.91,82,90,4.61,overcast clouds,2021-08-03 23:04:59
253,Dosso,NE,13.049,3.1937,82.38,66,14,11.68,few clouds,2021-08-03 23:04:59
254,Emerald,AU,-23.5333,148.1667,59.34,40,60,13.6,broken clouds,2021-08-03 23:00:18
255,Cap Malheureux,MU,-19.9842,57.6142,69.58,67,1,12.06,clear sky,2021-08-03 23:01:09
256,Gazli,UZ,40.1333,63.45,87.57,23,4,9.69,clear sky,2021-08-03 23:05:00
257,Ambon,ID,-3.6954,128.1814,77.14,94,75,4.61,broken clouds,2021-08-03 23:05:00
258,Olafsvik,IS,64.8945,-23.7142,54.32,89,99,5.88,light rain,2021-08-03 23:05:01
259,Puerto Leguizamo,CO,-0.1934,-74.7819,74.91,79,91,2.64,overcast clouds,2021-08-03 23:05:01
260,Kruisfontein,ZA,-34.0033,24.7314,53.96,80,1,8.23,clear sky,2021-08-03 23:05:01
261,Georgetown,MY,5.4112,100.3354,80.53,90,20,3.44,few clouds,2021-08-03 23:05:01
262,Umm Kaddadah,SD,13.6017,26.6876,83.05,59,26,16.51,scattered clouds,2021-08-03 23:05:02
263,Necochea,AR,-38.5473,-58.7368,48.04,65,91,4.36,overcast clouds,2021-08-03 23:05:03
264,Pemberton,CA,50.3164,-122.8027,93.99,19,0,6.64,clear sky,2021-08-03 23:00:11
265,Nikolskoye,RU,59.7035,30.7861,54.01,97,29,5.41,scattered clouds,2021-08-03 23:05:03
266,Cururupu,BR,-1.8283,-44.8683,74.41,82,69,2.68,broken clouds,2021-08-03 23:05:03
267,Katsuura,JP,35.1333,140.3,84.31,76,14,6.29,few clouds,2021-08-03 23:00:24
268,Kayerkan,RU,69.3497,87.7602,63.64,70,44,1.43,scattered clouds,2021-08-03 23:05:04
269,Klaksvik,FO,62.2266,-6.589,50.92,93,100,2.35,overcast clouds,2021-08-03 23:05:04
270,Sibolga,ID,1.7427,98.7792,75.34,90,91,3.53,overcast clouds,2021-08-03 23:05:04
271,Totness,SR,5.8833,-56.3167,76.93,86,16,5.75,few clouds,2021-08-03 23:05:05
272,Huangzhai,CN,38.0751,112.6595,70.21,81,99,1.25,overcast clouds,2021-08-03 23:05:05
273,Medicine Hat,CA,50.0501,-110.6683,88.21,38,100,1.99,overcast clouds,2021-08-03 23:01:08
274,Algeciras,ES,36.1333,-5.4505,73.17,91,4,3.87,clear sky,2021-08-03 23:05:05
275,Svetlaya,RU,46.5389,138.3297,64.9,93,100,3.6,overcast clouds,2021-08-03 23:05:06
276,Veinticinco De Mayo,AR,-35.4323,-60.1727,56.05,60,1,5.66,clear sky,2021-08-03 23:05:06
277,Inta,RU,66.0317,60.1659,58.32,83,45,6.38,scattered clouds,2021-08-03 23:05:06
278,Bahawalpur,PK,29.4,71.6833,93.51,43,77,6.58,broken clouds,2021-08-03 23:03:17
279,Trincomalee,LK,8.5711,81.2335,80.91,76,91,21.61,overcast clouds,2021-08-03 23:00:46
280,Roma,US,43.2128,-75.4557,76.84,60,1,6.91,clear sky,2021-08-03 23:05:07
281,Crotone,IT,39.0851,17.1178,76.93,58,3,10.47,clear sky,2021-08-03 23:05:07
282,Ossora,RU,59.2353,163.0719,49.41,69,99,5.23,overcast clouds,2021-08-03 23:05:07
283,Ambanja,MG,-13.6833,48.45,69.73,90,86,2.28,light rain,2021-08-03 23:05:08
284,Cotonou,BJ,6.3654,2.4183,77.43,87,48,10.67,scattered clouds,2021-08-03 23:05:08
285,Sabang,ID,5.8933,95.3214,82.94,75,100,24.45,overcast clouds,2021-08-03 23:05:08
286,Kongoussi,BF,13.3258,-1.5347,85.1,55,26,9.93,scattered clouds,2021-08-03 23:05:08
287,Houma,US,29.5958,-90.7195,81.0,90,40,3.44,scattered clouds,2021-08-03 23:05:09
288,Upernavik,GL,72.7868,-56.1549,42.01,90,72,11.1,broken clouds,2021-08-03 23:00:15
289,Den Helder,NL,52.9599,4.7593,61.95,78,0,8.01,clear sky,2021-08-03 23:05:09
290,Poso,ID,-1.3959,120.7524,78.49,79,99,7.09,light rain,2021-08-03 23:05:09
291,Rapu-Rapu,PH,13.1866,124.1256,83.8,76,100,18.84,light rain,2021-08-03 23:05:10
292,Borazjan,IR,29.2666,51.2159,96.19,23,0,3.56,clear sky,2021-08-03 23:05:10
293,Guatire,VE,10.4762,-66.5427,73.04,96,93,3.94,overcast clouds,2021-08-03 23:05:10
294,Seoul,KR,37.5683,126.9778,81.91,78,77,1.97,broken clouds,2021-08-03 23:04:53
295,Ostrovnoy,RU,68.0531,39.5131,56.88,86,91,21.52,overcast clouds,2021-08-03 23:05:11
296,Clearwater,US,27.9659,-82.8001,84.22,78,1,4.0,clear sky,2021-08-03 23:05:11
297,Kudahuvadhoo,MV,2.6708,72.8944,81.95,72,100,2.64,overcast clouds,2021-08-03 23:05:11
298,Yulara,AU,-25.2406,130.9889,48.04,53,0,11.5,clear sky,2021-08-03 23:05:11
299,Haines Junction,CA,60.7522,-137.5108,70.47,46,79,1.28,broken clouds,2021-08-03 23:05:12
300,Maniitsoq,GL,65.4167,-52.9,46.65,90,54,0.81,broken clouds,2021-08-03 23:05:12
301,Mutiscua,CO,7.3009,-72.7467,51.04,98,100,3.4,overcast clouds,2021-08-03 23:05:12
302,Cameta,BR,-2.2444,-49.4958,80.4,61,66,3.2,broken clouds,2021-08-03 23:05:13
303,Honggang,CN,46.4667,124.8667,64.65,92,100,8.72,overcast clouds,2021-08-03 23:05:13
304,Sorland,NO,67.667,12.6934,52.03,84,99,13.24,overcast clouds,2021-08-03 23:05:13
305,Mula,ES,38.0409,-1.4901,73.65,66,40,3.4,scattered clouds,2021-08-03 23:05:14
306,Aktau,KZ,43.65,51.2,79.38,31,93,8.66,overcast clouds,2021-08-03 23:05:14
307,Haimen,CN,23.1935,116.6142,81.1,87,100,4.99,overcast clouds,2021-08-03 23:05:14
308,Elizabeth City,US,36.2946,-76.2511,73.45,93,75,8.05,light rain,2021-08-03 23:05:14
309,Rio Grande,BR,-32.035,-52.0986,51.94,90,20,6.11,few clouds,2021-08-03 23:02:30
310,Gornopravdinsk,RU,60.05,69.9,54.82,94,81,4.65,broken clouds,2021-08-03 23:05:15
311,Bam,IR,29.106,58.357,89.35,28,84,6.08,broken clouds,2021-08-03 23:05:15
312,Ishigaki,JP,24.3448,124.1572,81.95,84,100,10.0,overcast clouds,2021-08-03 23:05:16
313,Paamiut,GL,61.994,-49.6678,44.92,94,100,7.96,light rain,2021-08-03 23:05:16
314,Kenora,CA,49.8167,-94.4337,87.78,31,43,11.99,scattered clouds,2021-08-03 23:05:16
315,Kankaanpaa,FI,61.8,22.4167,50.76,79,5,5.5,clear sky,2021-08-03 23:05:16
316,Kisangani,CD,0.5167,25.2,74.25,71,65,2.33,broken clouds,2021-08-03 23:05:17
317,Abha,SA,18.2164,42.5053,64.65,68,0,6.91,clear sky,2021-08-03 23:05:17
318,Opuwo,NA,-18.0607,13.84,57.92,64,0,7.25,clear sky,2021-08-03 23:05:17
319,Abonnema,NG,4.7084,6.7931,76.95,87,100,4.16,light rain,2021-08-03 23:05:18
320,Barguzin,RU,53.6167,109.6167,58.33,85,89,4.07,overcast clouds,2021-08-03 23:05:18
321,Laje,BR,-10.1833,-40.9667,68.16,65,21,6.73,few clouds,2021-08-03 23:05:18
322,Bayan,CN,46.0833,127.4,64.71,87,53,7.02,broken clouds,2021-08-03 23:05:18
323,Hovd,MN,48.0056,91.6419,63.41,45,0,2.13,clear sky,2021-08-03 23:05:19
324,Singaraja,ID,-8.112,115.0882,77.68,83,43,3.06,scattered clouds,2021-08-03 23:05:19
325,Healesville,AU,-37.65,145.5167,50.31,99,90,3.13,light rain,2021-08-03 23:05:19
326,Badulla,LK,6.9895,81.0557,70.93,74,100,4.56,overcast clouds,2021-08-03 23:05:20
327,Arlit,NE,18.7369,7.3853,99.59,18,41,6.98,scattered clouds,2021-08-03 23:05:20
328,Lethem,GY,3.3803,-59.7968,77.18,83,93,0.56,overcast clouds,2021-08-03 23:05:20
329,Santa Cecilia,BR,-26.9608,-50.4269,43.54,87,4,1.81,clear sky,2021-08-03 23:05:20
330,Illapel,CL,-31.6308,-71.1653,61.9,61,0,2.62,clear sky,2021-08-03 23:05:21
331,Davila,PH,18.4726,120.5763,81.95,88,100,30.58,overcast clouds,2021-08-03 23:05:21
332,Tuatapere,NZ,-46.1333,167.6833,39.81,76,100,4.18,overcast clouds,2021-08-03 23:05:21
333,Santa Marta,CO,11.2408,-74.199,83.98,81,100,6.31,overcast clouds,2021-08-03 23:01:12
334,Sitka,US,57.0531,-135.33,62.49,77,90,5.75,light rain,2021-08-03 23:05:22
335,Caravelas,BR,-17.7125,-39.2481,68.47,84,75,5.28,broken clouds,2021-08-03 23:05:22
336,Christchurch,NZ,-43.5333,172.6333,51.33,68,7,1.01,clear sky,2021-08-03 23:04:35
337,Mackay,AU,-21.15,149.2,72.05,66,6,7.81,clear sky,2021-08-03 23:05:22
338,Tilichiki,RU,60.4667,166.1,46.63,61,98,9.24,overcast clouds,2021-08-03 23:05:23
339,Omsukchan,RU,62.5333,155.8,36.14,99,100,6.73,light rain,2021-08-03 23:05:23
340,Leiyang,CN,26.4024,112.8591,81.05,80,69,3.2,broken clouds,2021-08-03 23:05:23
341,Salalah,OM,17.0151,54.0924,78.89,94,90,9.22,light intensity drizzle,2021-08-03 23:03:48
342,Vysokogornyy,RU,50.1167,139.15,64.9,86,92,3.33,overcast clouds,2021-08-03 23:05:24
343,Mezen,RU,65.8522,44.24,58.98,80,19,10.67,few clouds,2021-08-03 23:05:24
344,Bar Harbor,US,44.3876,-68.2039,71.24,68,1,6.91,clear sky,2021-08-03 23:05:24
345,Hamilton,US,39.1834,-84.5333,79.57,47,40,9.22,scattered clouds,2021-08-03 23:02:33
346,Lima,PE,-12.0432,-77.0282,61.14,87,43,10.07,scattered clouds,2021-08-03 23:00:26
347,Tombouctou,ML,20.0,-3.0,83.89,53,45,25.37,scattered clouds,2021-08-03 23:05:24
348,Jiangyou,CN,31.7667,104.7167,74.71,83,38,5.35,light rain,2021-08-03 23:05:25
349,Oyama,JP,36.3,139.8,88.88,71,53,4.47,broken clouds,2021-08-03 23:05:25
350,Zaqatala,AZ,41.6336,46.6433,70.27,49,40,9.22,scattered clouds,2021-08-03 23:05:25
351,Sioux Lookout,CA,50.1001,-91.917,79.48,42,46,3.65,scattered clouds,2021-08-03 23:05:26
352,Kavaratti,IN,10.5669,72.642,82.08,75,82,16.46,broken clouds,2021-08-03 23:05:26
353,Kara,TG,9.5511,1.1861,73.6,85,84,2.91,broken clouds,2021-08-03 23:05:26
354,Yanam,IN,16.7333,82.2167,80.31,73,89,4.16,overcast clouds,2021-08-03 23:05:26
355,Calamar,CO,10.2511,-74.9146,82.18,69,100,5.95,overcast clouds,2021-08-03 23:05:27
356,Liepaja,LV,56.5419,21.0367,51.85,100,20,2.3,few clouds,2021-08-03 23:05:27
357,Kirakira,SB,-10.4544,161.9205,79.83,70,88,7.36,overcast clouds,2021-08-03 23:05:27
358,Kulhudhuffushi,MV,6.6221,73.07,81.66,77,96,9.98,overcast clouds,2021-08-03 23:05:28
359,Alice Springs,AU,-23.7,133.8833,45.95,53,1,3.44,clear sky,2021-08-03 23:05:28
360,Clyde River,CA,70.4692,-68.5914,39.43,93,40,13.8,scattered clouds,2021-08-03 23:05:28
361,Vardo,NO,70.3705,31.1107,46.6,95,100,34.02,light rain,2021-08-03 23:05:28
362,Huescar,ES,37.811,-2.5412,71.94,62,45,1.66,scattered clouds,2021-08-03 23:05:29
363,Naze,JP,28.3667,129.4833,78.75,81,86,13.94,overcast clouds,2021-08-03 23:05:29
364,La Ronge,CA,55.1001,-105.2842,66.7,66,100,8.5,overcast clouds,2021-08-03 23:05:29
365,Roshchino,RU,60.2519,29.6085,53.37,82,28,6.93,scattered clouds,2021-08-03 23:05:29
366,Andapa,MG,-14.65,49.65,58.98,97,42,2.91,scattered clouds,2021-08-03 23:05:30
367,Bathsheba,BB,13.2167,-59.5167,81.21,74,20,11.5,few clouds,2021-08-03 23:05:30
368,Marienburg,PL,54.0359,19.0266,56.88,92,84,3.53,broken clouds,2021-08-03 23:05:30
369,Port Shepstone,ZA,-30.7414,30.455,62.85,79,4,4.81,clear sky,2021-08-03 23:05:31
370,Sarangani,PH,5.4033,125.4636,83.44,76,94,11.23,overcast clouds,2021-08-03 23:05:31
371,Cayenne,GF,4.9333,-52.3333,82.09,81,0,1.01,clear sky,2021-08-03 23:05:31
372,Sa Kaeo,TH,13.75,102.3333,75.69,91,100,6.87,overcast clouds,2021-08-03 23:05:31
373,Mayo,US,38.8876,-76.5119,78.57,69,1,1.99,clear sky,2021-08-03 23:05:32
374,Languyan,PH,5.2618,120.0807,82.17,83,100,6.2,overcast clouds,2021-08-03 23:05:32
375,Manono,CD,-7.3,27.4167,73.38,36,0,4.05,clear sky,2021-08-03 23:05:32
376,Fort Nelson,CA,58.8053,-122.7002,85.5,25,21,7.45,few clouds,2021-08-03 23:05:32
377,Marawi,PH,7.9986,124.2928,68.65,81,93,4.88,overcast clouds,2021-08-03 23:05:33
378,Grand Gaube,MU,-20.0064,57.6608,69.64,67,0,12.5,clear sky,2021-08-03 23:05:33
379,Margate,GB,51.3813,1.3862,58.69,77,0,1.01,clear sky,2021-08-03 23:05:33
380,Wanaka,NZ,-44.7,169.15,37.11,99,99,2.39,overcast clouds,2021-08-03 23:05:34
381,Biloela,AU,-24.4167,150.5,60.57,32,19,16.35,few clouds,2021-08-03 23:05:34
382,Camacha,PT,33.0833,-16.3333,68.76,73,40,13.8,scattered clouds,2021-08-03 23:05:34
383,Nishihara,JP,26.1842,127.7558,81.68,92,90,14.97,overcast clouds,2021-08-03 23:05:34
384,Tiznit,MA,29.5833,-9.5,63.86,83,37,3.62,scattered clouds,2021-08-03 23:05:35
385,Shafranovo,RU,53.9667,54.7667,70.72,42,4,5.39,clear sky,2021-08-03 23:05:35
386,Boyolangu,ID,-8.1181,111.8935,73.67,95,57,2.24,broken clouds,2021-08-03 23:05:35
387,Kirkcudbright,GB,54.8383,-4.0491,56.59,83,30,0.98,scattered clouds,2021-08-03 23:05:36
388,Novogagatli,RU,43.4568,46.4818,75.04,47,0,5.19,clear sky,2021-08-03 23:05:36
389,Korla,CN,41.7597,86.1469,76.26,27,69,2.06,broken clouds,2021-08-03 23:05:37
390,Saint-Joseph,RE,-21.3667,55.6167,66.58,76,4,4.38,light rain,2021-08-03 23:05:37
391,Banjar,ID,-8.19,114.9675,80.46,90,36,3.78,scattered clouds,2021-08-03 23:05:37
392,Bageshwar,IN,29.85,79.7667,70.97,94,86,1.16,overcast clouds,2021-08-03 23:05:37
393,Astana,KZ,51.1801,71.446,64.35,59,0,6.71,clear sky,2021-08-03 23:05:38
394,Manzhouli,CN,49.6,117.4333,64.11,76,100,3.78,overcast clouds,2021-08-03 23:05:38
395,Vanimo,PG,-2.6741,141.3028,80.35,86,38,5.84,scattered clouds,2021-08-03 23:05:38
396,Broome,US,42.2506,-75.833,75.78,51,1,0.0,clear sky,2021-08-03 23:05:39
397,Basco,PH,20.4487,121.9702,83.37,86,100,29.71,overcast clouds,2021-08-03 23:05:39
398,Tecoanapa,MX,16.5167,-98.75,86.76,68,100,7.63,overcast clouds,2021-08-03 23:05:39
399,Shahpura,IN,27.3833,75.9667,78.13,86,99,7.56,overcast clouds,2021-08-03 23:05:39
400,Maldonado,UY,-34.6667,-54.9167,48.22,85,10,2.64,clear sky,2021-08-03 23:01:27
401,Thabazimbi,ZA,-24.5917,27.4116,52.97,64,0,3.71,clear sky,2021-08-03 23:05:40
402,Bac Lieu,VN,9.285,105.7244,79.27,86,100,10.58,overcast clouds,2021-08-03 23:05:40
403,Mahibadhoo,MV,3.7833,72.9667,82.11,73,94,3.51,overcast clouds,2021-08-03 23:02:01
404,Hastings,GB,50.8552,0.5729,58.32,94,4,3.22,clear sky,2021-08-03 23:02:07
405,Ancud,CL,-41.8697,-73.8203,45.43,78,67,5.61,broken clouds,2021-08-03 23:05:40
406,Challakere,IN,14.3167,76.65,72.59,80,72,18.61,broken clouds,2021-08-03 23:05:41
407,Yichang,CN,30.7144,111.2847,80.47,84,0,2.8,light rain,2021-08-03 23:02:19
408,Beringovskiy,RU,63.05,179.3167,49.55,69,93,13.18,overcast clouds,2021-08-03 23:05:41
409,Namatanai,PG,-3.6667,152.4333,83.05,73,29,2.93,scattered clouds,2021-08-03 23:05:41
410,Champerico,GT,14.3,-91.9167,83.35,71,66,7.25,broken clouds,2021-08-03 23:05:42
411,Lagos,NG,6.5833,3.75,75.94,91,94,3.89,overcast clouds,2021-08-03 23:03:25
412,Neuenrade,DE,51.2833,7.7833,59.29,53,71,0.87,broken clouds,2021-08-03 23:05:42
413,Ewa Beach,US,21.3156,-158.0072,89.55,46,20,12.66,few clouds,2021-08-03 23:05:42
414,Chukhloma,RU,58.7525,42.6825,57.74,81,87,5.17,overcast clouds,2021-08-03 23:05:42
415,Negotin,RS,44.2264,22.5308,71.1,43,1,2.39,clear sky,2021-08-03 23:05:43
416,Kwinana,AU,-32.25,115.7667,48.54,78,8,6.2,clear sky,2021-08-03 23:05:13
417,Ponta Delgada,PT,37.7333,-25.6667,72.32,88,75,8.05,broken clouds,2021-08-03 23:05:43
418,Jeremie,HT,18.65,-74.1167,81.7,74,100,3.4,overcast clouds,2021-08-03 23:05:43
419,Avera,US,33.194,-82.5271,82.27,76,82,7.29,broken clouds,2021-08-03 23:05:44
420,Kavieng,PG,-2.5744,150.7967,83.43,73,16,5.66,few clouds,2021-08-03 23:05:44
421,Cabedelo,BR,-6.9811,-34.8339,74.07,84,85,13.76,overcast clouds,2021-08-03 23:05:44
422,Basqal,AZ,40.7552,48.391,70.81,24,47,5.5,scattered clouds,2021-08-03 23:05:45
423,Pervomaysk,UA,48.0443,30.8507,65.28,65,59,3.96,broken clouds,2021-08-03 23:05:45
424,Altamira,BR,-3.2033,-52.2064,77.79,53,87,1.32,overcast clouds,2021-08-03 23:05:45
425,Buta,CD,2.7858,24.73,68.83,95,41,1.95,scattered clouds,2021-08-03 23:05:45
426,Palang,BD,23.2167,90.35,78.84,91,100,5.61,overcast clouds,2021-08-03 23:05:46
427,Nhulunbuy,AU,-12.2333,136.7667,81.21,65,40,16.11,scattered clouds,2021-08-03 23:05:46
428,Tucurui,BR,-3.7661,-49.6725,79.45,44,71,1.88,broken clouds,2021-08-03 23:04:55
429,Mitsamiouli,KM,-11.3847,43.2844,75.02,67,0,3.36,clear sky,2021-08-03 23:05:46
430,Champasak,LA,14.75,106.0,73.18,100,100,0.74,light rain,2021-08-03 23:01:15
431,Ixcatepec,MX,21.2,-97.95,86.74,52,100,9.71,overcast clouds,2021-08-03 23:05:47
432,Riviere-Au-Renard,CA,48.9957,-64.3971,63.7,83,100,2.91,overcast clouds,2021-08-03 23:05:47
433,Coracora,PE,-15.0333,-73.7833,47.84,75,82,3.83,broken clouds,2021-08-03 23:05:47
434,Manavalakurichi,IN,8.1333,77.3,78.89,82,100,14.27,overcast clouds,2021-08-03 23:05:48
435,Cockburn Town,TC,21.4612,-71.1419,82.15,76,98,20.45,overcast clouds,2021-08-03 23:05:48
436,Excelsior Springs,US,39.3392,-94.2261,82.69,46,40,0.0,scattered clouds,2021-08-03 23:05:00
437,Bilma,NE,18.6853,12.9164,95.45,27,2,9.01,clear sky,2021-08-03 23:05:48
438,Leningradskiy,RU,69.3833,178.4167,36.5,98,100,5.12,overcast clouds,2021-08-03 23:05:48
439,Berlevag,NO,70.8578,29.0864,46.33,88,100,23.02,light rain,2021-08-03 23:03:10
440,Nadym,RU,65.5333,72.5167,56.1,80,93,10.74,overcast clouds,2021-08-03 23:05:49
441,Porto Novo,BJ,6.4965,2.6036,76.55,88,55,6.17,broken clouds,2021-08-03 23:05:49
442,Mae Sai,TH,20.4335,99.8762,72.82,100,100,1.59,overcast clouds,2021-08-03 23:05:49
443,Melfi,IT,40.9965,15.6514,76.23,52,55,6.96,broken clouds,2021-08-03 23:05:50
444,Taltal,CL,-25.4,-70.4833,58.51,80,20,3.33,few clouds,2021-08-03 23:01:16
445,Vao,NC,-22.6667,167.4833,68.81,69,22,5.57,few clouds,2021-08-03 23:05:50
446,Sur,OM,22.5667,59.5289,87.62,60,1,10.45,clear sky,2021-08-03 23:04:46
447,Santa Elena,EC,-2.2333,-80.85,70.86,82,45,8.63,scattered clouds,2021-08-03 23:05:50
448,Aksarka,RU,66.5606,67.7975,53.11,89,0,4.54,clear sky,2021-08-03 23:05:51
449,Iquitos,PE,-3.7481,-73.2472,82.44,57,0,3.44,clear sky,2021-08-03 23:05:51
450,Mingaora,PK,34.7758,72.3625,73.6,83,81,5.23,broken clouds,2021-08-03 23:05:51
451,Ulladulla,AU,-35.35,150.4667,53.87,52,13,15.93,few clouds,2021-08-03 23:05:52
452,Lao Cai,VN,22.4833,103.95,75.88,92,49,2.55,scattered clouds,2021-08-03 23:05:52
453,Jaguaruna,BR,-28.615,-49.0256,54.55,95,22,6.51,few clouds,2021-08-03 23:05:52
454,Woodstock,CA,43.1334,-80.7497,74.93,70,90,7.0,overcast clouds,2021-08-03 23:05:10
455,Katangli,RU,51.7102,143.2326,52.32,98,100,17.49,overcast clouds,2021-08-03 23:05:53
456,Kaniama,CD,-7.5667,24.1833,69.8,30,6,5.14,clear sky,2021-08-03 23:05:53
457,Coos Bay,US,43.3665,-124.2179,79.32,86,1,20.71,mist,2021-08-03 23:05:54
458,Soeng Sang,TH,14.4264,102.4606,74.77,89,100,4.72,overcast clouds,2021-08-03 23:05:54
459,Ereymentau,KZ,51.6199,73.1033,62.56,67,63,4.94,broken clouds,2021-08-03 23:05:54
460,Asau,RO,46.4333,26.4,61.72,95,14,1.92,few clouds,2021-08-03 23:05:55
461,Akonolinga,CM,3.7667,12.25,67.48,98,86,2.59,light rain,2021-08-03 23:05:09
462,Wanlaweyn,SO,2.6185,44.8938,73.9,86,98,11.77,overcast clouds,2021-08-03 23:05:55
463,Kota Tinggi,MY,1.7381,103.8999,75.2,93,13,2.21,few clouds,2021-08-03 23:05:55
464,Markala,ML,13.7021,-6.0659,83.28,63,64,6.22,broken clouds,2021-08-03 23:05:56
465,Lagoa,PT,39.05,-27.9833,71.85,89,8,7.31,clear sky,2021-08-03 23:05:53
466,Zivinice,BA,44.4494,18.6497,60.22,100,8,1.01,clear sky,2021-08-03 23:05:56
467,Prince Rupert,CA,54.3161,-130.3201,60.89,94,90,9.22,light rain,2021-08-03 23:05:56
468,Yar-Sale,RU,66.8333,70.8333,55.65,89,39,9.01,scattered clouds,2021-08-03 23:05:56
469,Dahuk,IQ,36.8695,42.994,83.82,33,6,5.3,clear sky,2021-08-03 23:05:49
470,Kaliua,TZ,-5.0606,31.7936,69.28,41,56,4.12,broken clouds,2021-08-03 23:05:57
471,Praya,CV,14.9215,-23.5087,77.54,94,90,11.5,light intensity drizzle,2021-08-03 23:05:57
472,Kindu,CD,-2.95,25.95,75.22,54,49,1.48,scattered clouds,2021-08-03 23:05:57
473,Hay River,CA,60.8156,-115.7999,60.76,82,90,11.5,overcast clouds,2021-08-03 23:05:58
474,Chuka,KE,-0.3332,37.6459,61.74,78,100,5.48,overcast clouds,2021-08-03 23:05:58
475,Rocky Mount,US,35.9382,-77.7905,71.35,83,20,4.61,moderate rain,2021-08-03 23:05:59
476,Francisco Sa,BR,-16.4758,-43.4883,72.99,43,80,8.57,broken clouds,2021-08-03 23:05:59
477,Alugan,PH,12.2188,125.4808,82.85,73,100,9.98,overcast clouds,2021-08-03 23:05:59
478,Balad,IQ,34.0164,44.1453,97.29,18,4,8.52,clear sky,2021-08-03 23:06:00
479,Asosa,ET,10.0667,34.5333,60.62,89,100,3.74,overcast clouds,2021-08-03 23:06:00
480,Vestmanna,FO,62.1564,-7.1664,49.12,100,90,5.75,fog,2021-08-03 23:06:00
481,Masunga,BW,-20.6246,27.4488,52.05,60,0,10.4,clear sky,2021-08-03 23:06:00
482,Villa Union,MX,23.2,-106.2333,87.03,79,75,0.0,broken clouds,2021-08-03 23:06:01
483,Pamanukan,ID,-6.2842,107.8106,75.02,84,59,3.06,broken clouds,2021-08-03 23:06:01
484,Ahipara,NZ,-35.1667,173.1667,56.75,62,96,5.75,overcast clouds,2021-08-03 23:06:01
485,Fukue,JP,32.6881,128.8419,82.02,76,19,5.73,few clouds,2021-08-03 23:06:02
486,Encheng,CN,22.1839,112.3026,79.0,90,93,3.53,overcast clouds,2021-08-03 23:06:02
487,Jacqueville,CI,5.2052,-4.4146,76.91,89,99,11.41,overcast clouds,2021-08-03 23:06:02
488,Chapleau,CA,47.8405,-83.4034,69.49,80,78,3.53,broken clouds,2021-08-03 23:02:15
489,Salinopolis,BR,-0.6136,-47.3561,79.12,80,93,6.24,overcast clouds,2021-08-03 23:06:03
490,Sebinkarahisar,TR,40.2883,38.4236,58.96,81,4,4.81,clear sky,2021-08-03 23:06:03
491,Maceio,BR,-9.6658,-35.7353,71.04,100,90,4.61,mist,2021-08-03 23:02:36
492,Moron,AR,-34.6534,-58.6198,57.97,74,34,1.01,scattered clouds,2021-08-03 23:06:03
493,Tokur,RU,53.1333,132.9,47.17,99,100,4.05,moderate rain,2021-08-03 23:06:04
494,Mareeba,AU,-17.0,145.4333,71.44,74,36,2.44,scattered clouds,2021-08-03 23:06:04
495,Brokopondo,SR,4.75,-55.1667,76.89,86,26,6.15,scattered clouds,2021-08-03 23:06:04
496,Nanakuli,US,21.3906,-158.1547,89.55,45,20,12.66,few clouds,2021-08-03 23:06:04
497,Kazerun,IR,29.6195,51.6541,86.97,25,1,2.19,clear sky,2021-08-03 23:06:05
498,Dakar,SN,14.6937,-17.4441,77.88,84,97,12.35,overcast clouds,2021-08-03 23:05:13
499,Mahon,ES,39.8885,4.2658,72.16,78,0,3.44,clear sky,2021-08-03 23:06:05
500,Axim,GH,4.8699,-2.2405,76.6,90,94,9.28,overcast clouds,2021-08-03 23:06:05
501,Pitimbu,BR,-7.4706,-34.8086,73.99,85,58,13.0,broken clouds,2021-08-03 23:06:06
502,Katobu,ID,-4.9408,122.5276,75.22,91,92,3.51,overcast clouds,2021-08-03 23:06:06
503,Ha Tinh,VN,18.3333,105.9,81.45,76,100,4.81,overcast clouds,2021-08-03 23:01:47
504,Kichera,RU,55.9375,110.0997,59.68,83,88,1.61,overcast clouds,2021-08-03 23:06:06
505,Namibe,AO,-15.1961,12.1522,65.39,84,0,10.07,clear sky,2021-08-03 23:06:07
506,Tamiahua,MX,21.2667,-97.45,86.32,64,100,10.29,overcast clouds,2021-08-03 23:06:07
507,Amapa,BR,1.0,-52.0,74.79,88,100,1.07,overcast clouds,2021-08-03 23:06:07
508,Holoby,UA,51.0865,25.0077,59.05,68,40,4.14,scattered clouds,2021-08-03 23:06:07
509,Karratha,AU,-20.7377,116.8463,61.11,28,12,18.43,few clouds,2021-08-03 23:06:08
510,Seymchan,RU,62.8833,152.4333,48.97,48,100,24.0,overcast clouds,2021-08-03 23:06:08
511,Norton,ZW,-17.8833,30.7,47.28,57,1,5.99,clear sky,2021-08-03 23:06:08
512,Lander,US,42.833,-108.7307,74.8,56,20,10.36,few clouds,2021-08-03 23:06:08
513,Belyy Yar,RU,53.6039,91.3903,57.09,94,0,2.24,clear sky,2021-08-03 23:06:09
514,Alice,US,27.7523,-98.0697,91.31,70,90,10.36,overcast clouds,2021-08-03 23:06:09
515,Meulaboh,ID,4.1363,96.1285,75.42,90,99,4.94,overcast clouds,2021-08-03 23:06:09
516,Baie-Comeau,CA,49.2168,-68.1489,63.45,52,82,11.72,broken clouds,2021-08-03 23:03:43
517,Glace Bay,CA,46.1969,-59.957,69.89,74,85,1.01,overcast clouds,2021-08-03 23:06:10
518,Westport,US,41.1415,-73.3579,77.09,60,1,1.99,clear sky,2021-08-03 23:05:26
519,Auki,SB,-8.7676,160.7034,82.27,68,28,4.79,scattered clouds,2021-08-03 23:06:10
520,Yumen,CN,40.2833,97.2,70.99,17,100,8.46,overcast clouds,2021-08-03 23:06:10
521,Itacare,BR,-14.2775,-38.9967,70.81,83,70,11.77,broken clouds,2021-08-03 23:06:11
522,Ziarat,PK,30.3823,67.7282,65.79,55,0,2.44,clear sky,2021-08-03 23:06:11
523,Saint-Augustin,CA,51.226,-58.6502,63.41,72,100,19.53,overcast clouds,2021-08-03 23:06:11
524,Marrakesh,MA,31.6315,-8.0083,77.07,53,0,4.61,clear sky,2021-08-03 23:06:11
525,Kamenka,RU,51.3223,42.7678,65.48,94,100,9.69,overcast clouds,2021-08-03 23:06:12
526,Dublin,US,37.7021,-121.9358,99.25,38,1,10.0,clear sky,2021-08-03 23:03:15
527,San Rafael Del Sur,NI,11.8485,-86.4384,81.41,80,100,8.21,overcast clouds,2021-08-03 23:06:12
528,Shahabad,IN,27.65,79.95,79.03,83,100,8.95,overcast clouds,2021-08-03 23:06:12
529,Aktash,RU,50.3,87.7333,44.2,86,6,2.77,clear sky,2021-08-03 23:06:13
530,Srandakan,ID,-7.9386,110.2506,75.43,91,59,4.92,broken clouds,2021-08-03 23:06:13
531,Filingue,NE,14.3521,3.3168,91.09,44,16,12.5,few clouds,2021-08-03 23:06:13
532,Kawambwa,ZM,-9.7915,29.0791,60.19,43,0,8.55,clear sky,2021-08-03 23:06:14
533,Xiongzhou,CN,25.1167,114.3,78.85,92,90,0.98,overcast clouds,2021-08-03 23:06:14
534,Kem,RU,64.9555,34.5793,50.34,88,100,19.66,overcast clouds,2021-08-03 23:06:14
535,Juneau,US,58.3019,-134.4197,66.85,77,90,9.22,overcast clouds,2021-08-03 23:06:14
536,Marovoay,MG,-16.1,46.6333,68.14,78,23,2.71,few clouds,2021-08-03 23:06:15
537,Jasper,US,37.2001,-94.3502,83.82,53,1,3.0,clear sky,2021-08-03 23:06:15
538,Abu Dhabi,AE,24.4667,54.3667,92.57,63,8,7.94,clear sky,2021-08-03 23:02:41
539,Nome,US,64.5011,-165.4064,71.17,77,40,10.36,scattered clouds,2021-08-03 23:06:15
540,Werda,BW,-25.2667,23.2833,53.47,38,0,10.65,clear sky,2021-08-03 23:06:16
541,Nyimba,ZM,-14.5566,30.8149,59.47,38,12,6.17,few clouds,2021-08-03 23:06:16
542,Cordele,US,31.9635,-83.7824,83.75,88,90,9.22,overcast clouds,2021-08-03 23:05:39
543,Jalu,LY,29.0331,21.5482,89.98,21,0,8.88,clear sky,2021-08-03 23:06:16
544,Staryy Nadym,RU,65.6118,72.6842,56.03,81,97,10.65,overcast clouds,2021-08-03 23:06:17
545,Ammapettai,IN,10.8,79.3333,81.43,61,81,11.5,broken clouds,2021-08-03 23:06:17
546,Norfolk,US,42.1668,-71.2495,75.78,72,1,5.75,clear sky,2021-08-03 23:06:17
547,Kampong Cham,KH,11.9934,105.4635,78.12,84,100,4.79,overcast clouds,2021-08-03 23:06:17
548,Kodinsk,RU,58.6881,99.1844,62.74,77,27,0.56,scattered clouds,2021-08-03 23:06:18
549,Conway,US,35.0887,-92.4421,86.09,57,40,1.01,scattered clouds,2021-08-03 23:06:18
550,Bavly,RU,54.393,53.2602,71.1,47,23,3.42,few clouds,2021-08-03 23:06:18
551,Troitskoye,RU,52.9821,84.6757,59.0,95,55,6.13,broken clouds,2021-08-03 23:06:19
552,Volsk,RU,52.0333,47.3833,72.91,61,100,1.9,overcast clouds,2021-08-03 23:06:19
553,Leh,IN,34.1667,77.5833,62.74,46,33,4.74,scattered clouds,2021-08-03 23:06:19
554,Salym,RU,60.0625,71.4789,53.56,92,63,5.44,broken clouds,2021-08-03 23:06:19
555,Chama,CH,47.1821,8.4636,60.06,90,75,0.0,moderate rain,2021-08-03 23:06:20
556,Sangar,RU,63.9242,127.4739,67.24,52,0,3.78,clear sky,2021-08-03 23:06:20
557,Vostok,RU,46.4856,135.8833,72.09,90,99,3.13,overcast clouds,2021-08-03 23:06:20
558,Dicabisagan,PH,17.0818,122.4157,83.98,75,100,8.63,overcast clouds,2021-08-03 23:06:20
559,Bud,US,39.447,-86.1758,78.89,47,38,3.42,scattered clouds,2021-08-03 23:06:21
560,Katherine,AU,-14.4667,132.2667,73.72,46,98,12.66,overcast clouds,2021-08-03 23:06:21
561,Peniche,PT,39.3558,-9.3811,68.72,90,87,13.27,overcast clouds,2021-08-03 23:06:21
562,Flin Flon,CA,54.7682,-101.865,78.64,53,90,10.36,smoke,2021-08-03 23:06:21
563,Sinnamary,GF,5.3833,-52.95,78.58,79,13,7.49,few clouds,2021-08-03 23:06:22
564,Belokurikha,RU,51.9959,84.9896,59.85,92,100,5.23,light rain,2021-08-03 23:06:22
565,San Juan,AR,-31.5375,-68.5364,62.06,24,7,7.16,clear sky,2021-08-03 23:06:22
566,Iberia,US,29.9502,-91.7507,83.97,83,75,0.0,broken clouds,2021-08-03 23:06:23
567,Sisimiut,GL,66.9395,-53.6735,49.87,85,100,5.61,overcast clouds,2021-08-03 23:06:23
568,Kloulklubed,PW,7.0419,134.2556,79.3,75,58,8.59,broken clouds,2021-08-03 23:06:23
569,Belmonte,BR,-15.8631,-38.8828,68.5,83,82,7.49,broken clouds,2021-08-03 23:06:23
570,Kaihua,CN,23.3687,104.28,65.05,89,88,4.16,overcast clouds,2021-08-03 23:04:30
571,Severnoye,RU,56.3491,78.3619,56.37,97,100,4.88,overcast clouds,2021-08-03 23:06:24
572,Birjand,IR,32.8663,59.2211,72.01,18,0,12.24,clear sky,2021-08-03 23:06:24
573,Port Hedland,AU,-20.3167,118.5667,62.65,27,39,11.5,scattered clouds,2021-08-03 23:06:24
574,Puerto Quijarro,BO,-17.7833,-57.7667,76.84,37,100,3.62,overcast clouds,2021-08-03 23:06:25
575,Darab,IR,28.7519,54.5444,86.31,32,51,6.64,broken clouds,2021-08-03 23:06:25
576,Rognan,NO,67.0953,15.3878,50.88,93,100,2.13,overcast clouds,2021-08-03 23:06:25
577,Rovnoye,RU,50.7765,46.0509,72.01,64,55,6.35,broken clouds,2021-08-03 23:06:25
578,Gisborne,NZ,-38.6533,178.0042,49.95,60,89,18.5,overcast clouds,2021-08-03 23:06:26
579,Yarada,IN,17.65,83.2667,82.72,78,75,2.3,mist,2021-08-03 23:06:26
580,Kibala,TD,9.1104,18.3463,69.04,93,100,2.62,overcast clouds,2021-08-03 23:06:26
581,Huilong,CN,31.8111,121.655,84.04,89,62,13.8,broken clouds,2021-08-03 23:06:27
582,New Castle,US,41.0037,-80.347,79.68,41,1,5.75,clear sky,2021-08-03 23:02:01
583,Labuhan,ID,-6.8844,112.2051,75.45,89,55,6.17,broken clouds,2021-08-03 23:06:27
584,Yakeshi,CN,49.2833,120.7333,60.84,87,99,6.55,moderate rain,2021-08-03 23:06:27
585,Moree,AU,-29.4667,149.85,49.46,67,1,12.62,clear sky,2021-08-03 23:06:28
586,Qasigiannguit,GL,68.8193,-51.1922,46.65,87,79,1.52,broken clouds,2021-08-03 23:06:28
587,Hauterive,FR,46.0901,3.4459,59.76,94,97,0.51,overcast clouds,2021-08-03 23:06:28
588,Lata,PT,40.1629,-8.3327,66.04,97,100,2.42,overcast clouds,2021-08-03 23:06:28
589,Santa Cruz,BO,-17.8,-63.1667,71.65,46,75,0.0,broken clouds,2021-08-03 23:06:29
590,College,US,64.8569,-147.8028,86.32,43,75,6.91,broken clouds,2021-08-03 23:06:29
591,Haradok,BY,55.4624,29.9816,52.32,95,54,5.06,broken clouds,2021-08-03 23:06:29
592,Travagliato,IT,45.5191,10.0805,71.35,70,100,3.58,overcast clouds,2021-08-03 23:06:30
593,Coxim,BR,-18.5067,-54.76,76.53,35,100,3.69,overcast clouds,2021-08-03 23:06:30
594,Mango,US,27.9797,-82.3065,84.15,83,40,9.22,scattered clouds,2021-08-03 23:06:30
595,Guaruja,BR,-23.9931,-46.2564,65.91,26,93,1.99,overcast clouds,2021-08-03 23:02:08
596,Bystryy Istok,RU,52.371,84.3873,58.41,97,67,5.66,light rain,2021-08-03 23:06:30
597,Bandrele,YT,-12.9067,45.1914,71.35,88,0,6.91,clear sky,2021-08-03 23:06:31
598,Morehead,US,37.2711,-87.1764,80.31,47,1,6.91,clear sky,2021-08-03 23:06:31
599,Mamontovo,RU,52.7055,81.6244,59.59,77,98,6.17,overcast clouds,2021-08-03 23:06:31
600,Chase,CA,50.8165,-119.6857,97.32,13,2,5.14,clear sky,2021-08-03 23:06:32
601,The Valley,AI,18.217,-63.0578,82.54,78,40,11.5,scattered clouds,2021-08-03 23:06:32
602,Long,TH,18.0761,99.8326,73.89,99,100,2.37,overcast clouds,2021-08-03 23:06:32
603,Fairbanks,US,64.8378,-147.7164,86.34,43,20,6.91,few clouds,2021-08-03 23:06:32
604,Coahuayana,MX,18.7333,-103.6833,87.28,68,20,5.32,few clouds,2021-08-03 23:06:33
605,Mecca,SA,21.4267,39.8261,87.13,49,58,3.96,broken clouds,2021-08-03 23:05:44
606,Najran,SA,17.4924,44.1277,78.93,57,49,8.77,scattered clouds,2021-08-03 23:06:33
607,Chamrajnagar,IN,11.9167,76.95,70.07,84,90,8.23,overcast clouds,2021-08-03 23:06:16
608,Vanavara,RU,60.34,102.2797,60.58,71,94,2.98,overcast clouds,2021-08-03 23:06:33
609,Insar,RU,53.8653,44.3738,62.83,93,80,5.82,broken clouds,2021-08-03 23:06:34
610,Ixtapa,MX,20.7,-105.2,85.23,79,75,12.66,broken clouds,2021-08-03 23:06:34
611,Porto Belo,BR,-27.1578,-48.5531,63.16,82,0,7.31,clear sky,2021-08-03 23:06:34
612,Tual,ID,-5.6667,132.75,80.82,73,97,21.34,overcast clouds,2021-08-03 23:06:35
613,Kailua,US,21.4022,-157.7394,89.58,58,20,17.27,few clouds,2021-08-03 23:06:35
614,Drexel Heights,US,32.1412,-111.0284,106.92,23,1,5.99,clear sky,2021-08-03 23:05:52
615,Aranjuez,ES,40.0311,-3.6025,83.41,28,83,7.74,broken clouds,2021-08-03 23:06:35
616,Si Racha,TH,13.1737,100.9311,87.89,76,100,11.99,overcast clouds,2021-08-03 23:06:36
617,Krasnoarmeysk,RU,51.0239,45.6969,73.15,58,97,5.64,overcast clouds,2021-08-03 23:06:36
618,Porbandar,IN,21.6422,69.6093,81.28,84,100,20.22,overcast clouds,2021-08-03 23:06:36
619,Coquimbo,CL,-29.9533,-71.3436,53.33,87,20,4.61,few clouds,2021-08-03 23:06:36
620,Kourou,GF,5.1552,-52.6478,82.11,80,8,6.17,clear sky,2021-08-03 23:06:37
621,Coruripe,BR,-10.1256,-36.1756,71.46,86,57,9.62,broken clouds,2021-08-03 23:06:37
622,Iranshahr,IR,27.2025,60.6848,94.1,20,1,6.29,clear sky,2021-08-03 23:05:21
623,Oksfjord,NO,70.2396,22.3479,52.0,80,99,4.65,overcast clouds,2021-08-03 23:06:37
624,Pisco,PE,-13.7,-76.2167,64.45,77,75,9.22,broken clouds,2021-08-03 23:06:38
625,Angoram,PG,-4.0625,144.0661,78.91,88,30,2.66,scattered clouds,2021-08-03 23:06:38
626,Boshnyakovo,RU,49.6333,142.1667,59.67,75,93,2.46,overcast clouds,2021-08-03 23:06:38
627,Cradock,ZA,-32.1642,25.6192,54.09,21,0,6.58,clear sky,2021-08-03 23:06:39
628,Garowe,SO,8.4054,48.4845,78.12,58,45,27.69,scattered clouds,2021-08-03 23:06:39
629,Curup,ID,-3.4667,102.5333,67.3,98,86,1.52,light rain,2021-08-03 23:06:39
630,Zhob,PK,31.3411,69.4481,80.1,48,41,3.42,scattered clouds,2021-08-03 23:06:39
631,Havoysund,NO,70.9963,24.6622,45.48,84,100,5.93,overcast clouds,2021-08-03 23:06:40
632,Maryville,US,35.7565,-83.9705,83.16,64,90,1.01,overcast clouds,2021-08-03 23:04:26
633,Lac Du Bonnet,CA,50.2536,-96.0612,94.55,16,97,3.56,overcast clouds,2021-08-03 23:06:40
634,Char Bhadrasan,BD,23.3167,90.2167,78.85,93,100,3.8,overcast clouds,2021-08-03 23:06:40
635,Rothenbach,DE,47.6167,9.9833,56.55,81,100,1.57,light rain,2021-08-03 23:06:41
636,Itarema,BR,-2.9248,-39.9167,76.84,81,51,6.35,broken clouds,2021-08-03 23:06:41
637,Atambua,ID,-9.1061,124.8925,72.61,77,81,3.15,broken clouds,2021-08-03 23:06:41
638,Marsh Harbour,BS,26.5412,-77.0636,83.19,70,100,14.61,overcast clouds,2021-08-03 23:06:41
639,Kuytun,RU,54.3419,101.5036,60.53,74,70,2.19,broken clouds,2021-08-03 23:06:42
640,Rockland,US,41.1668,-74.0496,76.08,73,100,1.66,overcast clouds,2021-08-03 23:06:42
641,Nanortalik,GL,60.1432,-45.2371,44.89,93,100,6.73,overcast clouds,2021-08-03 23:06:42
642,Amahai,ID,-3.3333,128.9167,77.31,89,97,3.53,overcast clouds,2021-08-03 23:06:43
643,Polunochnoye,RU,60.8697,60.4153,56.28,88,62,4.36,broken clouds,2021-08-03 23:06:43
644,Tabou,CI,4.423,-7.3528,75.94,83,79,6.71,broken clouds,2021-08-03 23:06:43
645,Riyadh,SA,24.6877,46.7219,93.13,10,65,4.72,broken clouds,2021-08-03 23:02:02
646,Dunkwa,GH,5.9656,-1.78,72.81,98,96,3.71,light rain,2021-08-03 23:06:44
647,Shaoyang,CN,27.2315,111.4525,79.32,83,35,4.16,scattered clouds,2021-08-03 23:06:44
648,Warri,NG,5.5167,5.75,76.01,90,95,3.22,light rain,2021-08-03 23:06:44
649,Komsomolskiy,UZ,40.4272,71.7189,76.42,29,38,2.15,scattered clouds,2021-08-03 23:06:45
650,Boende,CD,-0.2167,20.8667,78.46,44,84,0.94,broken clouds,2021-08-03 23:06:45
651,Luanda,AO,-8.8368,13.2343,70.16,90,47,7.4,scattered clouds,2021-08-03 23:06:45
652,Sao Gabriel Da Cachoeira,BR,-0.1303,-67.0892,75.96,80,64,2.08,broken clouds,2021-08-03 23:05:27
653,Monrovia,LR,6.3005,-10.7969,77.04,79,29,7.47,scattered clouds,2021-08-03 23:06:45
654,Fuengirola,ES,36.54,-4.6247,77.09,83,0,1.14,clear sky,2021-08-03 23:06:46
655,Canto Do Buriti,BR,-8.11,-42.9444,76.68,38,47,5.19,scattered clouds,2021-08-03 23:06:46
656,Ulaanbaatar,MN,47.9077,106.8832,53.73,87,75,8.95,broken clouds,2021-08-03 23:02:33
657,Bukama,CD,-9.2,25.85,70.45,37,1,2.06,clear sky,2021-08-03 23:06:46
658,Pombia,IT,45.653,8.6336,67.71,90,75,4.61,light rain,2021-08-03 23:06:47
659,Afua,BR,-0.1567,-50.3867,77.32,81,89,5.06,overcast clouds,2021-08-03 23:06:47
660,High Prairie,CA,55.4334,-116.4858,86.86,28,0,9.71,clear sky,2021-08-03 23:06:47
661,Yinchuan,CN,38.4681,106.2731,71.87,51,41,10.92,scattered clouds,2021-08-03 23:06:47
662,Governador Valadares,BR,-18.8511,-41.9494,70.74,51,80,5.82,broken clouds,2021-08-03 23:05:21
663,Zhireken,RU,52.8249,117.3076,60.33,93,100,3.0,light rain,2021-08-03 23:06:48
664,Kosikha,RU,53.3617,84.5822,63.37,92,83,4.61,broken clouds,2021-08-03 23:06:48
665,Puerto Escondido,MX,15.85,-97.0667,86.83,62,75,0.0,broken clouds,2021-08-03 23:06:48
666,Port Hardy,CA,50.6996,-127.4199,65.59,70,64,3.42,broken clouds,2021-08-03 23:06:49
667,Ape,LV,57.5393,26.6929,49.71,95,13,3.42,few clouds,2021-08-03 23:06:49
668,Orlik,RU,52.5178,99.825,54.16,69,44,2.17,scattered clouds,2021-08-03 23:06:49
669,Salvador,SV,13.8333,-88.9167,77.05,92,88,2.53,light rain,2021-08-03 23:06:49
670,Khasan,RU,42.4308,130.6434,74.62,90,51,6.69,broken clouds,2021-08-03 23:06:50
671,Astorga,BR,-23.2325,-51.6656,63.0,52,28,5.46,scattered clouds,2021-08-03 23:06:50
672,Lumby,CA,50.2498,-118.969,99.19,24,14,4.81,few clouds,2021-08-03 23:06:50
673,Villazon,BO,-22.0866,-65.5942,41.86,73,96,14.05,overcast clouds,2021-08-03 23:06:50
674,Labytnangi,RU,66.6572,66.4183,54.14,86,0,3.38,clear sky,2021-08-03 23:06:51
675,Gouyave,GD,12.1646,-61.7296,80.42,76,96,9.73,overcast clouds,2021-08-03 23:06:51
676,Kisaran,ID,2.9845,99.6158,72.59,97,88,2.62,light rain,2021-08-03 23:06:51
677,Bulls,NZ,-40.1667,175.3833,51.42,73,0,3.58,clear sky,2021-08-03 23:06:52
678,Kahului,US,20.8947,-156.47,84.22,62,40,25.32,scattered clouds,2021-08-03 23:06:52
679,Xinqing,CN,48.2333,129.5,71.02,94,68,4.52,broken clouds,2021-08-03 23:05:17
680,Salinas,US,36.6777,-121.6555,96.01,65,1,10.36,clear sky,2021-08-03 23:01:59
681,Tautira,PF,-17.7333,-149.15,84.22,80,71,11.81,light rain,2021-08-03 23:02:29
